name,nameCountry,longitud,latitud
Castleknock,Ireland,-9.0248232,53.2760162
Shangmachang,China,127.3305,50.367353
Cuntan,China,106.572803,29.605367
Dalarik,Armenia,43.8717749,40.2272711
Artybash,Russia,87.2508267,51.791159
Stráž nad Nisou,Czech Republic,15.0266516,50.7911439
Zhaowu,China,103.694265,36.1093631
Raffingora,Zimbabwe,30.4386437,-17.0363653
Ardino,Bulgaria,25.9294198,43.8047536
Shaogongzhuang,China,117.155313,39.154261
Guji,China,107.253334,26.443249
Zākhū,Iraq,42.6726771,37.1504622
Walnut Grove,Canada,-122.6562872,49.2165148
Yuanba,China,105.96282,32.323256
Yuelai,China,106.53519,29.72277
Usol’ye,Russia,56.6803807,59.4254685
Carpentras,France,5.0852479,44.0264621
Zielona Góra,Poland,15.4768834,51.9210929
Jardim,Brazil,-56.1494143,-21.4803962
Ágios Spyrídon,Greece,22.4387178,40.2074194
Chilmāri,Bangladesh,89.6616352,25.5810414
Ciénaga,Colombia,-73.9830029,10.8698035
Mascote,Brazil,-39.4450281,-15.6969314
Viline,Ukraine,33.6744583,44.8464736
Chetian,China,113.8853373,22.5805725
Long Xuyên,Vietnam,105.4185406,10.3759416
Jiangdong,China,121.570383,29.866818
Xixia,China,111.482591,33.298364
Stockholm,Sweden,-68.1435046,47.0203207
Sigaozhuang,China,117.26062,39.472976
Langenburg,Canada,-101.71763,50.84999
Hohhot,China,111.749995,40.842356
Laojiangjunjie,China,102.71159,24.67964
Lukovica pri Domžalah,Slovenia,14.6907259,46.1696293
Caucete,Argentina,-64.1266198,-31.4393481
Moosomin,Canada,-101.66766,50.13332
Hobo,Philippines,123.1804731,13.5085076
Uritsk,Russia,30.1775921,59.82941
Zhengcun,China,114.532957,28.955847
Yongxing,China,113.116527,26.12715
Putrajaya,Malaysia,101.6821575,2.9175611
Konstantinovo,Russia,38.0335558,56.5523691
Nanyuan,China,116.3877778,39.7825
Karangbadar Kidul,Indonesia,109.03083,-7.70556
Brandfort,South Africa,26.4577466,-28.6903818
Yunlong,China,117.251076,34.253164
Youxi Chengguanzhen,China,118.188043,26.168922
Rogoźnik,Poland,19.9504449,49.444308
Conde,Brazil,-34.8403408,-7.2893545
Rybinsk,Russia,38.6043668,58.0312993
Natonin,Philippines,121.287152,17.125337
Oruro,Bolivia,-67.1060353,-17.9646772
Vélizy-Villacoublay,France,2.2161608,48.7724625
La Hacienda,Philippines,124.3882585,9.8827617
St. Anton an der Jeßnitz,Austria,15.2299747,48.0147763
Paatan,Philippines,124.848271,7.0773723
Örbyhus,Sweden,17.6375865,60.1386576
Fifi,Morocco,-5.24798,34.94873
Bayt Ta‘mar,Palestinian Territory,35.241822,31.678719
Omsk,Russia,73.2498639,55.0614182
Badaogu,China,117.345479,39.480497
Madur,Indonesia,113.287085,-7.0777326
Sayang Lauq,Indonesia,116.1325,-8.5694
Toubao,China,115.474295,40.256729
Fāqūs,Egypt,31.7977797,30.7292723
Partizansk,Russia,132.8303672,43.3433802
Kidodi,Tanzania,35.9166669,-7.916667
Bridel,Luxembourg,6.0872124,49.6638448
Nuradilovo,Russia,46.4531554,43.2837871
Denver,United States,-104.9739333,39.9311729
Bragança Paulista,Brazil,-46.5423239,-22.9531705
Kwaluseni,Swaziland,31.3484448,-26.4820262
Mibu,Japan,132.5509347,34.6796489
Puncakwangi,Indonesia,107.0716609,-7.2953035
Xiajiashan,China,104.747254,29.677333
Paris 06,France,5.8978018,43.4945737
La Cumbre,Colombia,-76.567956,3.649442
Condado,Brazil,-35.1048713,-7.5944434
Cabanilla,Peru,-70.3494605,-15.6412156
Sindangrasa,Indonesia,106.8370122,-6.6359299
Sukamaju,Indonesia,106.8502879,-6.4185424
Huozhuangzi,China,117.32162,39.293263
Kilifarevo,Bulgaria,25.6162991,42.9856238
Wawu,China,112.461956,26.974959
Dawa-Dawa,Philippines,122.8564594,7.5038886
Shaoha,China,109.77792,29.013167
Gaocheng,China,114.847075,38.021567
Slavs’ke,Ukraine,23.4472258,48.834578
Qiaozhen,China,107.148314,34.477513
Łubnice,Poland,18.2903712,51.1644956
Magan,Russia,129.517113,62.107429
Mata de São João,Brazil,-38.3001614,-12.5327517
Río Ceballos,Argentina,-65.0052144,-31.7436794
Hong Kong,Hong Kong,114.109497,22.396428
Patrocínio,Brazil,-47.058302,-18.998706
Mensalong,Indonesia,116.750397,3.756455
Estrela,Brazil,-51.9640632,-29.501873
Tomay Kichwa,Peru,-76.21194,-10.07722
Moulay Bouchta,Morocco,-5.1262689,34.4912621
Hexing,China,106.8311173,-6.2140375
Mosjøen,Norway,13.2106011,65.8375549
Sofia,Bulgaria,23.3245641,42.6978209
Santo Domingo Este,Dominican Republic,-69.8639751,18.4895862
Boende,Democratic Republic of the Congo,20.8850949,-0.2842862
Donggaocun,China,117.116756,40.104785
Xiaping,China,117.562238,27.568278
Zhangcun,China,125.323544,43.817071
Le Mans,France,0.1924459,47.9956173
Chicago,United States,-87.6087638,41.7458012
San Vicente,Philippines,121.0589081,14.7596318
Kajatian,Philippines,120.953061,5.990033
Dublje,Serbia,19.5121851,44.774428
Guifões,Portugal,-8.6725287,41.2007787
Candelária,Brazil,-52.8312661,-29.7132471
Tarbagatay,Russia,85.6264576,44.3338201
København,Denmark,12.5786568,55.6828987
Trinidad,Peru,-79.033333,-7.35
Bama,Nigeria,13.6883765,11.5218308
Marale,Honduras,-87.1711922,14.8921247
Santa Cruz de Barahona,Dominican Republic,-71.0924706,18.2051988
Chornyanka,Ukraine,33.3646929,46.6522568
Sandnes,Norway,16.0707095,67.1335945
Porto de Mós,Portugal,-8.8165669,39.6022749
Dahay,Philippines,124.7225,6.39694
Sohag,Egypt,31.6956705,26.5590737
Teresita,Philippines,120.9138589,14.3082674
El Rancho,Honduras,-85.75,15.016667
Pamungguan,Indonesia,106.5620398,-7.2560353
Kokstad,South Africa,28.2926361,-26.1332779
Sergiyev Posad,Russia,38.1016955,56.3103675
Dadus,Philippines,124.32167,7.0575
Knivsta,Sweden,17.7824686,59.7222934
Ipoh,Malaysia,101.1064003,4.6096768
Suslonger,Russia,48.2506985,56.3153167
Quipot,Philippines,121.3228399,13.9293954
Shimotoda,Japan,134.9774188,34.9822925
Pore,Colombia,-71.993941,5.7265629
Stoczek Łukowski,Poland,21.97131,51.961354
Tenggina Daya,Indonesia,113.1965,-6.9596
Washington,United States,-77.0336768,38.8987281
Uwa,Indonesia,107.5902556,-6.8637417
Yuecheng,China,120.582633,29.988244
Tortosendo,Portugal,-7.5293225,40.2466889
Huangtian,China,113.814606,22.636828
Guacara,Venezuela,-67.8927472,10.2646995
Haduohe,China,122.018799,47.233746
Yashalta,Russia,42.2634987,46.2646112
Santa Cruz do Rio Pardo,Brazil,-49.6258261,-22.8997858
Sade,Nigeria,10.6731603,11.3557935
Yefremov,Russia,38.0521393,53.0641593
Port Elizabeth,Saint Vincent and the Grenadines,-61.2306446,13.0100514
Desnogorsk,Russia,33.2878545,54.152383
Foundiougne,Senegal,-16.4405872,13.81425
San Vicente,Philippines,121.0589081,14.7596318
Sinajana Village,Guam,144.7546333,13.4623836
Bendilmuning,Indonesia,111.9417,-8.0925
Porkhov,Russia,58.6660975,52.7387427
Bailizhou,China,111.81127,30.400907
Lianga,Philippines,126.0932341,8.6317541
Odiongan,Philippines,121.990643,12.405227
Germiston,South Africa,28.205089,-26.2922169
Chunoyar,Russia,97.3580243,57.4492483
Kawanishi,Japan,139.2162168,37.9092189
Mesiméri,Greece,23.0102888,40.4168034
Santo Niño,Philippines,121.050126,14.3839328
Nivnice,Czech Republic,17.6475832,48.9746444
Kaem,Indonesia,123.8661,-9.7732
Yangjinzhuang,China,117.433236,39.867984
Uchaly,Russia,59.4823216,54.3113742
Fontana,Argentina,-67.5018975,-45.8732238
Waco,United States,-97.8047404,31.1393795
Stepnogorsk,Kazakhstan,71.8852785,52.3518344
Werasari,Indonesia,108.2347863,-7.0453363
Eschweiler,Luxembourg,5.9475635,49.99754
Dongjie,China,119.3028774,26.08603
Zouérat,Mauritania,-12.4753205,22.7325323
Otradnoye,Russia,37.621698,55.86328
Lubbock,United States,-101.85193,33.5465493
Karanggeneng,Indonesia,110.5933862,-7.5173045
Roriz,Portugal,-8.3773116,41.3435561
Jinzao,China,121.1268459,41.095685
Sanli,China,116.746096,24.84662
Nizhnyaya Maktama,Russia,52.4223979,54.8603009
Sumuragung,Indonesia,111.9969626,-7.1665502
Maduao,Philippines,125.62583,7.29417
Oslo,Norway,10.7477822,59.9278844
New Iloilo,Philippines,122.5747412,10.6989729
Guifões,Portugal,-8.6725287,41.2007787
Qingyang,China,107.643631,35.709077
Diwopu,China,87.4741667,43.9072222
Pucacaca,Peru,-76.3440537,-6.8506475
Hashimoto,Japan,139.934112,38.9814589
Nangen,South Korea,127.38583,35.41
Dragash,Kosovo,20.6511592,42.0615398
Skołyszyn,Poland,21.3418674,49.7582153
Gostimë,Albania,20.0181673,40.9942545
Helie,China,122.7613525,40.8570429
Youfang,China,109.07515,32.291013
Vilppula,Finland,25.8771151,62.4693629
Jiangkou,China,108.839557,27.69965
Káto Glikóvrisi,Greece,22.7760837,36.8277257
Sangali,Philippines,122.2124068,7.0762776
Monte Patria,Chile,-70.9586889,-30.6978944
Troyan,Bulgaria,24.7129702,42.8903751
Yelabuga,Russia,52.061524,55.7558426
Mas‘adah,Syria,35.75572,33.23203
Tangzhuang,China,119.745363,32.770894
Bartolomé Masó,Cuba,-76.947022,20.1566488
Krajan Srigonco,Indonesia,112.5618,-8.3418
Dueñas,Philippines,121.0485932,14.5008343
Mouzourás,Greece,24.15476,35.5390834
Sychëvo,Russia,36.2249059,55.9576019
Lavandeira,Portugal,-8.3742728,41.9867326
Guxian,China,111.920465,36.266914
Lijia,China,120.6240412,31.306136
Mörrum,Sweden,14.756367,56.1747912
Cibeuti,Indonesia,108.1888233,-7.3863388
Gaokan,China,122.511257,40.628952
Sułoszowa,Poland,19.7778549,50.2505714
Gayam,Indonesia,105.6984455,-5.7577862
Brańsk,Poland,22.8413044,52.7433639
Carrizal,Venezuela,-67.0166725,10.3846169
Maun,Botswana,23.4180769,-19.9952622
Riangblolong,Indonesia,123.252,-8.314
Strání,Czech Republic,17.6961852,48.9000154
Rakiv Lis,Ukraine,24.9194195,51.6203554
Albion,Mauritius,57.408999,-20.2081037
Cartagena,Colombia,-74.9438915,10.9819737
Maswarah,Yemen,45.72623,14.34399
Santa Rita Village,Guam,144.751572,13.4760985
Faleula,Samoa,-171.8319995,-13.7973358
Głuchołazy,Poland,17.38347,50.31512
Qukës-Skënderbe,Albania,20.4425942,41.0826078
Shahrak,Afghanistan,64.5266446,34.016449
Bi’r Ḩāt,Yemen,48.516388,15.552727
Tampa,United States,-82.4290869,27.9961123
Bulu,Philippines,120.5976797,15.1315727
Kepuh,Indonesia,112.116195,-7.6873253
Ballivor,Ireland,-6.1191333,53.1915379
Velké Svatoňovice,Czech Republic,16.0198605,50.5374971
Lancar,Indonesia,109.7651203,-7.5421424
Rosebank,South Africa,28.044486,-26.1514859
Bolnisi,Georgia,44.5488663,41.4493594
Kurlovo,Russia,40.6134152,55.4563422
Baisha,China,100.222545,26.641315
Khashuri,Georgia,43.5865947,41.9837685
Stod,Czech Republic,13.1647458,49.6390987
Leiden,Netherlands,4.4833003,52.1701159
Lianrao,China,116.986622,23.72513
Xilian,China,110.73404,29.673196
Mukō,Japan,135.7023712,34.9565646
Santa Catalina,Venezuela,-68.917999,7.935298
Revolucion Verde,Mexico,-97.45842,25.8513334
Duyanggang,China,114.600138,38.453095
Keleleng,Indonesia,106.896143,-6.197602
Temyasovo,Russia,58.1242712,52.9850842
Trabulheira,Portugal,-8.7335517,39.7476306
Ar Ruḩaybah,Syria,36.7011138,33.7443314
Metković,Croatia,17.6493431,43.0532801
Araci,Brazil,-39.0710754,-11.2568167
Březová,Czech Republic,17.865273,49.794945
Nanshi,China,113.525165,22.801624
Studená,Czech Republic,13.6430342,49.9606288
Blagodarnyy,Russia,43.4277535,45.149066
Klyuchevsk,Russia,60.9303033,57.1130629
Palaiomonástiron,Greece,21.65861,39.4625
Paltamo,Finland,27.8381469,64.403043
Kukawa,Nigeria,13.5639377,12.9229652
Xiadu,China,118.784812,30.921373
Sarana,Russia,57.7301714,56.4797638
Changnyeong,South Korea,128.4922143,35.5445563
Buriti Bravo,Brazil,-43.8356779,-5.8327847
Cempaka,Indonesia,114.8804853,-3.4892191
Bīrganj,Nepal,84.8672171,27.0449005
Moss,Norway,10.646404,59.4443693
San Agustín,El Salvador,-88.5945715,13.4292207
Danyang,China,119.606439,32.010214
Qvareli,Georgia,45.8147918,41.9483514
Kura,Nigeria,8.4239055,11.7701438
Rodatychi,Ukraine,23.518328,49.799354
Cikabuyutan Barat,Indonesia,107.083333,-6.6
Libofshë,Albania,19.5538336,40.833907
Bello,Colombia,-75.5858886,6.3833462
Novopokrovka,Ukraine,34.6153907,48.0589455
Lela,Indonesia,122.2171695,-8.7377882
Simeykyne,Ukraine,39.53366,48.32643
Lyozna,Belarus,30.8005553,55.024145
Kampot,Cambodia,104.1640355,10.5942421
Longtang,China,110.4153075,19.8838774
Rengasdengklok,Indonesia,107.2946735,-6.1801188
Tsovazard,Armenia,45.0525325,40.4776836
Zalţan,Libya,11.8492577,32.9566376
Fuxing,China,114.462061,36.639033
Crespo,Argentina,-60.6752261,-32.968211
Karabash,Russia,60.2122499,55.456622
Bastan,Russia,79.470665,51.86318
Dadian,China,120.9057,36.867795
Balsas,Brazil,-46.035885,-7.5330309
Lavras da Mangabeira,Brazil,-39.0293884,-6.7821701
Fare,French Polynesia,-151.0340359,-16.7111944
Jatirejo,Indonesia,112.4172256,-7.617735
Pasirlaja,Indonesia,106.8384873,-6.5472126
Chonchi,Chile,-73.7738499,-42.6232593
Klagenfurt am Wörthersee,Austria,14.2652932,46.5884132
Krojo,Indonesia,106.4288088,-6.076643
Skovorodino,Russia,123.9092222,53.9732574
Moulins,France,3.325957,46.571039
Guangping,China,114.948606,36.483484
Tembladera,Peru,-79.129784,-7.2538172
Atlanta,United States,-84.3436881,33.723039
Lakkha Nëvre,Russia,45.2369958,43.6158396
Xiangshui,China,119.578364,34.199479
Xinning,China,110.856622,26.433417
Mompós,Colombia,-74.4028287,9.2209606
Dobrošte,Macedonia,21.07778,42.10333
Hongtang,China,114.157935,22.280436
Palanas,Philippines,120.942358,14.4066158
Bria,Central African Republic,21.9910008,6.5390358
Drammen,Norway,10.2999444,59.7001688
Předklášteří,Czech Republic,16.4024121,49.35253
Ostankinskiy,Russia,37.626119,55.813957
Songmuping,China,111.484536,30.118912
Labuhansumbawa,Indonesia,117.3998369,-8.4734842
Xianyang,China,108.708991,34.329605
Cogtong,Philippines,124.5140325,9.8220686
Ulaan Khat,Mongolia,89.84173,47.98257
Arklow,Ireland,-8.4523258,51.880525
Krajan Srigonco,Indonesia,112.5618,-8.3418
Gap,France,2.3477753,48.8588363
Cape Coast,Ghana,-1.2794744,5.13151
Mangaran,Indonesia,114.0369075,-7.6272472
Ciranca,Indonesia,108.2763069,-7.023104
Paipa,Colombia,-73.114725,5.77977
Zhongtong,China,116.0625588,36.448127
Mairinque,Brazil,-47.1947232,-23.5297232
Černý Most,Czech Republic,14.5744479,50.1064489
Majiadu,China,117.674739,30.953479
Quintães,Portugal,-8.3633682,41.3402313
Jetis,Indonesia,110.363649,-7.783297
Yunxiang,China,116.447949,39.907771
Ayang-ni,North Korea,125.750504,38.235241
Dobrošte,Macedonia,21.07778,42.10333
Ipoh,Malaysia,101.1064003,4.6096768
Dnestrovsc,Moldova,29.91333,46.62222
Cane,Honduras,-87.6568799,14.279014
Danxi,China,120.997332,28.229271
Wenfeng Zhen,China,117.416058,24.410255
Doba,Chad,16.8591387,8.6791925
Su-dong,South Korea,127.4954241,36.6425079
Al Funayţīs,Kuwait,48.118031,29.173201
Nikolayevka,Russia,45.1444,54.1451
Tlogosari,Indonesia,113.9655419,-8.0344803
Belanting,Indonesia,116.5963713,-8.321199
Wuyang,China,113.609286,33.437877
La Virgen,Mexico,-99.581953,19.2535103
Moscow,Russia,30.3865325,59.924661
Wydminy,Poland,22.0325128,53.9818262
Quebradas,Honduras,-87.1242072,14.3770919
Berlin,Germany,13.4343715,52.4867189
Salem,Indonesia,132.311005,-0.754923
Al Maşdūr,Tunisia,10.72746,35.68206
Yelabuga,Russia,52.061524,55.7558426
Llipa,Peru,-77.042754,-12.0463731
Parse,Indonesia,115.2711,-6.8602
Langchi,China,119.583599,26.085391
Pitanga,Brazil,-51.7601166,-24.7592533
Marulanda,Colombia,-75.259705,5.2843859
Kaduseeng,Indonesia,105.9693,-6.3965
San Diego,Venezuela,-67.9583246,10.2535534
Sigay,Philippines,120.5350021,16.9894215
Karbunara e Vogël,Albania,19.71778,40.92194
Kampunglistrik,Indonesia,104.020289,1.135959
Mileb,Philippines,121.1072374,14.6293712
Lima Pampa,Peru,-76.9970692,-11.9417972
Phanna Nikhom,Thailand,103.8680047,17.3233062
Tran,Philippines,120.9644288,14.7572292
Yeghvard,Armenia,44.4869872,40.3234491
Karangasem,Indonesia,115.5207358,-8.3465933
Maumere,Indonesia,122.2146964,-8.6245515
Sembalunbumbung,Indonesia,116.5491893,-8.4044008
Pogorzyce,Poland,19.42228,50.10186
Jomsom,Nepal,83.7730237,28.7746477
Mełgiew,Poland,22.7850797,51.2250373
København,Denmark,12.5720689,55.6782044
Slobodskoy,Russia,50.1704702,58.7103464
Rudnyy,Kazakhstan,63.1128326,52.9718428
Břeclav,Czech Republic,16.905384,48.7320309
Vĩnh Thuận,Vietnam,105.2428853,9.5384134
Dois Córregos,Brazil,-48.3860575,-22.3734081
Nai Harn,Thailand,98.3031575,7.7785093
Ḩāfiz̧ Moghul,Afghanistan,70.40061,37.05643
Périgueux,France,1.0154129,45.156512
Puqian,China,110.580002,20.023731
Guangshan,China,114.91925,32.009995
El Aïoun,Morocco,-2.5098914,34.5824996
Xindian,China,116.694361,37.105382
Limín Khersonísou,Greece,25.39275,35.32297
Shigu,China,112.507849,27.522725
Lucban,Philippines,121.6158104,13.9327517
Maykor,Russia,55.8855974,58.999782
Ivot,Russia,104.292306,52.286684
Herrljunga,Sweden,13.0188387,58.0780287
Belopa,Indonesia,120.3608455,-3.3939043
Jagüey Grande,Cuba,-81.1278814,22.5267186
Fulu,China,4.8925949,52.3716937
Yuetang,China,112.969479,27.872028
Roma,Italy,12.4581209,41.8789317
Karanglo,Indonesia,112.9848168,-7.7623521
Berbek,Indonesia,112.7613933,-7.3427222
Taiyangling,China,106.002647,33.026386
Killarney,Canada,-99.66364,49.18332
Argivai,Portugal,-8.7336232,41.3807001
Kagal’nitskaya,Russia,39.3745033,47.082485
Sepekov,Czech Republic,14.4059275,49.4411457
Sidon,Lebanon,35.372948,33.5570691
Iñapari,Peru,-69.5767704,-10.9492286
Nandu,China,105.417397,24.839129
Barwałd Górny,Poland,19.628749,49.874775
San Miguel Dueñas,Guatemala,-90.7973456,14.523594
Mutā Khān,Afghanistan,68.8663,33.24001
Estacion,Philippines,121.0125865,14.5493917
Yuxi,China,102.527197,24.347324
Versailles,France,2.1203554,48.8048649
Jiefangyan,China,109.746848,28.122424
Kalipucang,Indonesia,108.7511864,-7.6478966
Damaying,China,101.193664,38.341245
Emiliano Zapata,Mexico,-96.5943562,16.3317796
Castillos,Uruguay,-53.8617544,-34.1979128
Kazanskaya,Russia,39.192149,44.0088432
Kalahang,Indonesia,106.1831224,-6.3077304
Al Qiţena,Sudan,32.3668,14.8648
Vostryakovo,Russia,37.4429397,55.6613674
Kyra,Russia,111.9805058,49.5902725
Eṭ Ṭaiyiba,Israel,35.009675,32.266892
Oliveirinha,Portugal,-7.9700042,40.4501529
Kolwezi,Democratic Republic of the Congo,25.5088914,-10.7275273
Novo Cruzeiro,Brazil,-41.9989718,-17.4328946
Psará,Greece,25.5799503,38.5619186
Ina,Japan,140.3354054,37.280716
Estique,Peru,-70.017471,-17.543301
Le Cannet,France,6.9658358,43.5634394
Alingsås,Sweden,12.5362113,57.9300205
Itigi,Tanzania,34.4946697,-5.706302
Wulijie,China,118.270238,25.329044
Laocheng,China,112.469023,34.683646
Chachagüí,Colombia,-77.2520101,1.3796294
Dachuan,China,107.511843,31.196079
Limoges,France,3.5276642,45.521519
Sarandë,Albania,20.0271001,39.8592119
Yanahuanca,Peru,-76.5155834,-10.4911471
Garupá,Argentina,-55.0182151,-26.8191146
Suzdal’,Russia,40.4536153,56.4191591
Baquero Norte,Philippines,120.5726776,15.7325058
Sonsorol Village,Palau,132.2239117,5.3268119
Rāvar,Iran,56.7973878,31.2682228
Beaufort West,South Africa,23.0101345,-32.0974476
Weitang,China,120.649341,31.463475
Kleszczów,Poland,19.3045833,51.2228143
Guadalupe,Mexico,-100.2596935,25.6775595
Huancapallac,Peru,-75.783333,-9.916667
Taphan Hin,Thailand,100.3722477,16.2093368
Santo Antônio de Pádua,Brazil,-42.1837129,-21.5418158
Boršice,Czech Republic,17.3859903,49.0733587
Las Vegas,United States,-115.0228736,36.3193563
Lam Sonthi,Thailand,101.3608214,15.2988083
Vinhas,Portugal,-8.3018059,41.1518573
Shaozhai,China,115.569092,33.379845
Gal’bshtadt,Russia,78.9845,53.2264
Thika,Kenya,37.0833753,-1.0387569
Fuente de Oro,Colombia,-73.6300729,3.3393833
Oke Ila,Nigeria,4.983333,7.95
Charlotte,United States,-80.7842188,35.2037032
Banjar Dauhpangkung,Indonesia,115.0752,-8.5453
Sinait,Philippines,120.4558185,17.8625501
Bairro dos Marinheiros,Portugal,-9.0119332,38.6002724
Lerrnanist,Armenia,44.7899209,40.4670674
Tall Ḩamīs,Syria,41.3986916,36.7558101
Sumy,Ukraine,34.7981,50.9077
Labuhanjambu,Indonesia,118.0771515,-8.68633
Niquero,Cuba,-77.5791358,20.0390282
Zīrakī,Afghanistan,70.5577283,37.5910109
Falköping,Sweden,13.553217,58.175029
Temeke,China,39.2187828,-6.9206542
Jamundí,Colombia,-76.5929658,3.1377116
Baranowo,Poland,21.296838,53.175543
Qal‘eh-ye Khvājeh,Iran,49.4453295,32.2048631
Messina,Italy,15.5532993,38.2305534
Kosamphi Nakhon,Thailand,99.2823264,16.6714164
Kabalen,Philippines,120.671684,15.04538
Biryukove,Ukraine,39.7419209,47.9560267
Kirovohrad,Ukraine,32.262317,48.507933
Masoli,Philippines,123.3810275,13.3656061
Cikawunggading,Indonesia,108.1013637,-7.7414989
Kizil,China,82.502677,41.781418
Jiulian,China,118.184993,31.642397
Waiholo,Indonesia,119.0983524,-9.5179699
Shtip,Macedonia,22.199654,41.746429
Gondanglegi Wetan,Indonesia,112.6407229,-8.1878613
Xintang,China,113.823135,23.296786
Kájov,Czech Republic,14.2626645,48.8117849
Matoupu,China,114.723904,38.320362
Tonga,Cameroon,10.7013332,4.9697573
Washington,United States,-76.9611991,38.9187037
Communal,Philippines,-158.0060986,21.3872385
Glyadyanskoye,Russia,65.0894647,54.8940073
Anling,China,115.519278,38.234501
Dazhongzhuang,China,114.387043,32.425185
Jeju-si,South Korea,126.5311884,33.4996213
Shimotoda,Japan,134.9774188,34.9822925
Ciherang,Indonesia,106.7441048,-6.5864219
Vila Franca da Beira,Portugal,-7.8667708,40.4375447
Perené,Peru,-75.0611147,-10.8812955
Krzeszów,Poland,16.0708309,50.7338713
Bopu,China,121.389262,31.191643
Masebewa,Indonesia,122.0212337,-8.729881
Belung Satu,Indonesia,112.76878,-8.0372299
Pimbalayan,Philippines,124.6192703,6.7987866
Sangatta,Indonesia,117.5730639,0.549955
Kharagauli,Georgia,43.1936525,42.0223424
Boissevain,Canada,-100.05586,49.23062
Chavdar,Bulgaria,24.0846652,42.6995393
Xinjiezi,China,106.834805,33.157445
Bhopālwāla,Pakistan,74.3988615,32.4487329
Pinggirsari,Indonesia,107.6540877,-7.0837462
Bangrat,Indonesia,113.6397,-7.0405
Nanggorak,Indonesia,108.0997955,-7.3171858
Unecha,Russia,32.6840185,52.8436256
Norak,Tajikistan,69.2698737,38.3833041
Hobaramachi,Japan,140.5540146,37.8199686
Bauang,Philippines,121.050452,14.7299584
Bima,Indonesia,118.7449028,-8.4642661
Kiryandongo,Uganda,32.1391217,1.9530448
Targanice,Poland,19.3295966,49.8162832
Vila Velha,Brazil,-40.2897153,-20.3321939
Uthal,Pakistan,66.6278395,25.8142164
Leninsk,Russia,45.2032172,48.6979193
Payxambabazar,China,82.580514,41.477249
Youzai,China,112.558133,37.858628
Akron,United States,-81.6363869,41.0875099
Tsákoi,Greece,22.0383248,40.9556823
Tagana-an,Philippines,125.5705547,9.7133717
Vesele,Ukraine,35.1115128,46.9821813
Chão de Couce,Portugal,-8.3687908,39.8926924
Tame,Colombia,-71.9045649,6.2962841
Slutsk,Belarus,27.554013,53.0210495
Ventspils,Latvia,21.5647066,57.3937216
Rosso,Mauritania,-15.802612,16.5163413
North York,Canada,-79.4422593,43.7543283
Babakanloa,Indonesia,108.0050384,-7.1691828
Bang Yai,Thailand,100.3666326,13.8274278
Tungi,Bangladesh,90.4219444,23.8697964
Nghĩa Hành,Vietnam,108.7838572,15.0026852
Bayt ‘Adhāqah,Yemen,43.70228,15.61576
Płońsk,Poland,20.3835279,52.6244001
Gaozhai,China,101.978369,36.548365
Oslo,Norway,10.7510824,59.9327294
Jinka,Ethiopia,36.5715924,5.7806339
Ensanche Luperón,Dominican Republic,-70.0957159,18.4176704
Zamora,Ecuador,-78.948623,-4.0620941
São Joaquim,Brazil,-49.9375873,-28.292455
Jeżów,Poland,19.9684918,51.8135681
Ala-Buka,Kyrgyzstan,71.4833652,41.411881
Waikambila,Indonesia,119.669,-9.5324
Pocohuanca,Peru,-73.083333,-14.216667
Rancabuaya,Indonesia,106.4965434,-6.3123461
Téra,Niger,0.7556575,14.0031627
Trá Mhór,Ireland,-9.0197835,53.2736466
Shisui,Japan,140.2669505,35.7297805
Palopo,Indonesia,120.1985141,-3.0016343
Biting,Indonesia,111.2994071,-7.8533911
Horta,Portugal,-8.5468762,40.6205598
Tongchuan,China,108.945019,34.897887
Laç,Albania,19.705595,41.6412644
Pivka,Slovenia,14.1960581,45.6825301
Malusac,Philippines,120.6213379,14.8572534
Baiguo,China,104.512603,26.006775
Götene,Sweden,13.4953857,58.5235952
Pangkalan,Indonesia,111.622398,-2.688962
Ninh Giang,Vietnam,106.3699271,20.7491091
Robatal,Indonesia,113.2989944,-7.0071448
Mmaaf,Indonesia,110.7122647,-6.5347551
Hulu,China,116.4189381,39.9206322
Saint-Brieuc,France,-2.7383235,48.509075
Tanabe,Japan,135.7683696,34.8148172
Perené,Peru,-75.0611147,-10.8812955
Wangping,China,105.656922,34.782718
Menampukrajan,Indonesia,113.4145,-8.3307
Kaduna,Nigeria,7.4165053,10.5104642
Orléans,France,2.8002946,47.3591366
Šardice,Czech Republic,17.0279282,48.967159
Tilik,Philippines,120.1990703,13.8188768
Talcahuano,Chile,-73.1169808,-36.7247834
Amparo,Brazil,-46.7694191,-22.7064041
Longcang,China,105.287612,29.339476
Haarlem,Netherlands,4.6195236,52.3626877
Koh Kong,Cambodia,103.3587288,11.5762804
Balas,Philippines,121.7587348,16.9334683
Pingqiao,China,114.125656,32.101031
Pamplona/Iruña,Spain,-1.6432837,42.8045028
Ximei,China,118.341965,25.555534
Nunsena,Indonesia,124.4319309,-9.7934897
Quimper,France,-4.1020654,47.9962116
Paris 13,France,5.8978018,43.4945737
Meget,Russia,104.0456397,52.4242797
Mayakovski,Armenia,44.6342209,40.2442315
Sabanalarga,Colombia,-72.9899505,4.8413815
Lipiany,Poland,14.96923,53.00338
Huaqiu,China,103.816006,28.341795
Mary,Turkmenistan,61.8643252,37.6092461
Ash Shajarah,Jordan,35.9396453,32.6434902
Zwierzyniec,Poland,22.97512,50.61404
Cotonou,Benin,2.3912362,6.3702928
Tacheng,China,82.978928,46.748522
Vale de Rolas,Portugal,-9.0820766,38.6125141
Buenavista,Mexico,-99.1497664,19.4458447
Lianghekou,China,105.752775,28.379727
Jindou,China,115.110483,35.904442
Shipka,Bulgaria,25.3328975,42.7123148
Sumuranyar,Indonesia,114.0625,-7.7546
Phra Phutthabat,Thailand,100.7830826,14.7268634
Quintã,Portugal,-8.5183398,40.8576169
Rozhdestveno,Russia,37.5438564,54.7288441
Souto,Portugal,-8.1202831,41.0753802
Belfort,France,6.923811,47.484145
Sadov,Czech Republic,12.8970938,50.2671255
Imeni Babushkina,Russia,43.1333329,59.75
Letpandan,Myanmar,95.7563151,17.7917146
Kahama,Tanzania,32.593828,-3.837556
Avdzaga,Mongolia,103.408699,47.87344
Ponta Porã,Brazil,-55.7242526,-22.523123
Goodlands,Mauritius,57.6495717,-20.0391408
Stockholm,Sweden,18.067173,59.3354247
Obonoma,Nigeria,6.7815237,4.6845489
Port Sudan,Sudan,37.1901616,19.5903471
Ivoti,Brazil,-51.1689963,-29.5795648
Muriaé,Brazil,-42.3702252,-21.1291403
Xincun,China,109.971328,18.412445
Panshan,China,121.996499,41.242873
Tuy Phước,Vietnam,109.1642208,13.8565034
Balkanabat,Turkmenistan,54.3360001,39.5238734
Merkezköy,Turkey,40.0092505,40.8321934
Dingcheng,China,116.416357,39.928353
Mijiang,China,100.22775,26.855047
Limoncito,Bolivia,-63.4021544,-18.0292038
Brandsen,Argentina,-58.3787726,-34.6381227
Smederevo,Serbia,20.9335169,44.6658941
Oum Hadjer,Chad,19.6907146,13.292049
Lipsko,Poland,21.64911,51.159
Kofelē,Ethiopia,38.7865445,7.0764492
Pajannangger,Indonesia,115.3975,-6.9804
Jinping,China,116.70345,23.365556
Limbuš,Slovenia,15.5817763,46.5548251
Balatero,Philippines,120.9274735,13.5074239
Itaperuna,Brazil,-41.8799408,-21.1877747
Ikedachō,Japan,133.7812773,33.9419512
Jinqiao,China,121.611248,31.266133
Kunduz,Afghanistan,68.8680663,36.7285907
Quwaysinā,Egypt,31.1578769,30.5651672
Dordrecht,Netherlands,4.6999899,51.792865
Huangling,China,109.262961,35.579427
Taipingxi,China,111.01537,30.841493
Azilal,Morocco,-6.5730004,31.9649107
Chendong,China,117.9249002,35.8939566
Huallanca,Peru,-76.9398195,-9.8975064
Ibaan,Philippines,121.131952,13.816877
Al ‘Āqir,Yemen,45.6,14.283333
Longzui,China,118.4500421,39.2752729
Peoria,United States,-112.28609,33.7868136
Degerfors,Sweden,14.4319324,59.2436305
Jiaotan,China,115.413779,38.134916
Babakan,Indonesia,106.804564,-6.588201
Matayumtayum,Philippines,120.7090355,15.5160946
Apatin,Serbia,18.984314,45.6728599
Kashihara,Japan,133.9508311,34.2872962
Zhongxinqiao,China,117.566112,39.030297
Dachnoye,Russia,58.9216772,53.4445864
Hengdong Chengguanzhen,China,112.949437,27.08556
Sandaotong,China,129.745739,45.683569
Tiflet,Morocco,-6.3207151,33.8954803
Dębica,Poland,22.561217,51.64438
Chichibu,Japan,139.0791865,35.9528417
Moca,Dominican Republic,-70.4059336,18.9331158
Wengtian,China,110.883743,19.928174
São Lourenço de Mamporcão,Portugal,-7.5457633,38.8905198
Laju Kidul,Indonesia,111.7465609,-6.9770646
Moerewa,New Zealand,174.9213435,-37.0555803
Malé Svatoňovice,Czech Republic,16.0497864,50.5339443
São José de Ribamar,Brazil,-44.070196,-2.5503853
Gopaan,Indonesia,112.5106,-7.0014
Kananga,Democratic Republic of the Congo,22.4172256,-5.897522
San Antonio Aguas Calientes,Guatemala,-90.7858316,14.5495607
Huaqiao,China,118.6422409,24.9372186
Prilep,Kosovo,20.3190646,42.5076746
Studénka,Czech Republic,18.0785342,49.7234162
Maebaru,Japan,130.608934,32.9901655
Hernández,Argentina,-68.8502434,-32.9589969
Kota Bharu,Malaysia,102.2462087,6.1097207
Yongledian,China,116.796531,39.708782
Samut Songkhram,Thailand,99.9129845,13.3601931
Drochia,Moldova,28.4339797,47.837001
Youxikou,China,118.449395,26.396895
Mabusag,Philippines,120.467,17.9333
Lenger,Kazakhstan,69.8824972,42.1811386
Rizal,Philippines,121.1092186,14.5665378
Muang Sam Sip,Thailand,104.7264617,15.5106977
San Lorenzo,Nicaragua,-85.6698146,12.3772165
Gomunice,Poland,19.4883692,51.167963
Rönninge,Sweden,17.7689811,59.2013654
Chenārān,Iran,59.1213974,36.6415869
Gaoping,China,112.92392,35.797997
Zhaocun,China,119.310773,30.97213
Tulungrejo,Indonesia,112.1877315,-7.7546695
Nishiwaki,Japan,134.8867891,35.0743086
Konosha,Russia,40.2657733,60.9754503
Pingshui,China,120.6367578,29.9120904
Kostrzyn nad Odrą,Poland,14.6349097,52.6235765
Solna,Sweden,18.0191452,59.3525393
Choca do Mar,Portugal,-8.7011957,40.4889794
Golmud,China,94.928484,36.406404
Novi Vinodolski,Croatia,14.7897992,45.1285255
Abang,Indonesia,115.6273131,-8.3693974
Zvishavane,Zimbabwe,30.0549683,-20.3139411
Zuogaiduoma,China,103.133562,35.054002
Imider,Morocco,-5.7905653,31.3694559
Cergy-Pontoise,France,2.074954,49.039076
Liuhou,China,109.428608,24.326292
Har-Us,Mongolia,91.8666667,49.1
Ābyek,Iran,50.5446161,36.040428
Les Clayes-sous-Bois,France,1.9697936,48.8276508
Rzewnie,Poland,21.3426286,52.8234799
Līkak,Iran,50.0932428,30.8936954
Thị Trấn Việt Quang,Vietnam,104.8104424,22.4177717
Kafir Yasif,Israel,35.1599957,32.9520318
Xiadian,China,118.725698,35.621965
Dashi,China,111.975237,27.696901
Catolé do Rocha,Brazil,-37.7465518,-6.3417512
Boto,Indonesia,110.7167165,-7.6155876
Fengtai,China,116.287149,39.858427
Bairan,Philippines,123.7192022,10.1985612
Hongxing,China,129.3909831,48.239431
Kybartai,Lithuania,22.7575987,54.6410525
Barrī ash Sharqī,Syria,37.22551,35.008579
Zhujiang,China,113.6216667,22.7694444
Al Miftāḩ,Yemen,43.46381,15.97431
Al Buţayḩah,Syria,35.63198,32.90871
Sagae,Japan,140.2790754,38.3613687
Bosaso,Somalia,49.1878994,11.2755407
Austin,United States,-97.8395151,30.4190616
Pidhaytsi,Ukraine,25.1313297,49.2744124
Tatuí,Brazil,-47.8451996,-23.3549445
Edsbyn,Sweden,15.9055746,61.3611476
Chongwen,China,116.414961,39.896949
Rahama,Nigeria,8.6903172,10.4141663
Hopetown,South Africa,28.2949405,-26.1353484
Zelenodolsk,Russia,48.5236711,55.8697739
Cô Tô,Vietnam,107.8346924,21.1062206
Comé,Benin,1.8855057,6.4096168
Bené Beraq,Israel,34.835226,32.084932
Jincheng,China,112.851831,35.490701
Arboga,Sweden,15.8447572,59.3917649
Konče,Macedonia,22.38359,41.49511
Shali,Russia,45.9011736,43.1463186
Uruzgān,Afghanistan,66.1415263,32.9271287
Parakanhonje Wetan,Indonesia,108.1944,-7.2801
Erling,China,105.7676313,26.6679155
Chiang Khan,Thailand,101.6271544,17.8759173
Tentúgal,Portugal,-8.5846629,40.2252364
Mayong,China,113.5883876,23.0604451
Quinta do Sobrado,Portugal,-8.8259105,39.6454395
Çepan,Albania,20.2616268,40.4210295
Antopal’,Belarus,24.7853017,52.2041343
Trikora,Indonesia,121.4713265,0.4907958
Michałowice,Poland,20.8799274,52.1675198
Portelinha,Portugal,-8.4272356,39.6920939
Wleń,Poland,15.677587,51.0176058
Motala,Sweden,15.0017895,58.7243769
Zhongshan,China,113.39277,22.517585
Mabunga,Philippines,122.0680526,13.8645517
Shaheying,China,120.769905,40.828411
Besisahar,Nepal,84.3857442,28.1962471
Stryków,Poland,19.6055101,51.90218
Ulyanovsk,Russia,48.2335118,54.2866841
Gangtun,China,120.632941,40.927831
Strážná,Czech Republic,16.7105196,49.9112092
Tizguine,Morocco,-8.3143192,31.2393596
Józefosław,Poland,21.053265,52.1012559
Angoulême,France,0.129895,45.638468
Santa Cruz das Flores,Portugal,-31.1338071,39.4582827
Kefar Tavor,Israel,35.419972,32.687346
Marale,Honduras,-87.1711922,14.8921247
Frösön,Sweden,14.5928298,63.1257009
Cayenne,French Guiana,-52.3205637,4.9237913
Przelewice,Poland,15.0760167,53.1042303
Irving,United States,-96.967936,32.886855
Windusakti Hilir,Indonesia,108.7231,-7.1554
Brckovljani,Croatia,16.2945325,45.8361992
Ust’-Abakan,Russia,91.3960432,53.8354447
Singasari,Indonesia,112.6722635,-7.8848787
Xiangshan,China,121.869339,29.476705
Ambatolampy,Madagascar,47.4392352,-19.3836846
Marseille,France,5.3563232,43.2894617
Erba,China,9.2292909,45.813177
Tranås,Sweden,15.0052213,58.0275087
Guaíba,Brazil,-51.3238273,-30.1090924
Mercedes,Uruguay,-58.0185646,-33.2604441
Tiassalé,Ivory Coast,-4.8261424,5.9042627
Lucban,Philippines,121.6158104,13.9327517
Dongxin,China,107.971826,21.547821
Ta’ Xbiex,Malta,14.49444,35.89917
Taltal,Chile,-69.766667,-25.283333
Budziszewice,Poland,19.93565,51.667293
Calceta,Ecuador,-80.1596041,-0.8406658
Qingshan,China,114.385538,30.63963
Nanhe,China,114.683863,37.005017
Penambangan,Indonesia,112.5349392,-7.40772
Aguelmous,Morocco,-5.8432964,33.1584786
Singojuruh,Indonesia,114.2509376,-8.3200799
Oster,Ukraine,30.8786768,50.9486162
Lugulu,Kenya,34.305278,0.393611
Pueblo Nuevo,Peru,-79.5139718,-7.1916713
Sobreira,Portugal,-8.1988196,42.1252635
Bang Rak,Thailand,100.5148471,13.7246078
Bulgan,Mongolia,103.5218199,48.8231572
Cruz de los Milagros,Argentina,-58.8062726,-27.5093879
Tuqiao,China,116.686439,39.871981
Barreirinhas,Brazil,-42.8236209,-2.759
Groningen,Netherlands,6.5319506,53.2231057
Dongzha,China,117.448512,38.918056
Omemee,Canada,-78.55989,44.29897
Araripina,Brazil,-40.4976324,-7.57656
Sabugal,Portugal,-7.0895241,40.3516608
Czudec,Poland,21.8376406,49.9454719
Patemon,Indonesia,109.5285442,-7.6162571
Yangying,China,118.674614,37.433963
Lubu,China,112.294107,23.177772
Coronel Martínez,Paraguay,-56.6163213,-25.7605107
Liyuan,China,-90.3766634,38.5067706
Mabilang,Philippines,120.487985,15.6627727
Acacías,Colombia,-73.766129,3.991663
Mashan,China,130.478187,45.212088
Gaoming,China,112.892578,22.900182
At Tibnī,Syria,39.8193219,35.604681
Umeå,Sweden,20.0874486,63.8737727
Bothaville,South Africa,26.63056,-27.36667
Paucarbamba,Peru,-74.55,-12.55
Kungsbacka,Sweden,12.0730996,57.492982
Ngeru,Indonesia,117.5319733,-8.5056516
Espinal,Colombia,-74.9501034,4.1728946
Ganjiang,China,121.35142,28.165293
Oenaik,Indonesia,124.3556,-9.5701
Yevpatoriya,Ukraine,33.366867,45.19045
Cuilco,Guatemala,-91.8808763,15.4566044
Lukavec,Czech Republic,17.919916,49.7517708
Manoel Urbano,Brazil,-70.1455805,-9.9165208
Falun,Sweden,15.6527231,60.6152048
Siaya,Kenya,34.2747004,-0.0998238
‘Irbīn,Syria,36.3660597,33.5389052
São Tomé,Portugal,-8.4002579,41.3442557
Maymana,Afghanistan,64.7755147,35.91784
Kedungbang,Indonesia,111.0177251,-6.543601
Ust’-Ilimsk,Russia,102.7445248,57.9536921
Shitan,China,112.723615,27.754532
Changuillo,Peru,-75.225304,-14.67278
Tonjongsari,Indonesia,108.1754804,-7.7408587
Banjarkemuning,Indonesia,112.8165095,-7.3788331
Phu Loc,Vietnam,107.9394761,16.2725431
Sawo,Indonesia,115.3,-1.9
Sitovo,Bulgaria,27.8342003,43.5687705
Pombos,Brazil,-35.3685679,-8.1565483
Cotton Ground,Saint Kitts and Nevis,-62.617788,17.1744437
Ciketak,Indonesia,108.4595045,-7.0112331
Levashi,Russia,47.3298509,42.4229813
Songgai,China,121.4737021,31.2303904
Huambo,Peru,-72.1082897,-15.73144
Karangsumber,Indonesia,111.1086346,-6.8657511
Pensacola,United States,-87.193563,30.475663
Koronowo,Poland,17.8753018,53.3274494
Santa Maria,Brazil,-53.8154499,-29.68725
Besançon,France,5.9675963,47.2215999
Situ,China,119.6430298,32.8892572
Tuohua,China,118.9478423,31.3400146
Miedzichowo,Poland,15.9570211,52.3738553
Quyangqiao,China,114.491954,38.238247
Lukunor,Micronesia,153.8190084,5.5047283
Venâncio Aires,Brazil,-52.1936768,-29.6148016
Varna,Serbia,19.6519918,44.6677818
Nagarakembang,Indonesia,108.3311815,-7.0453161
Mlalo,Tanzania,38.3508173,-4.5802788
El Águila,Colombia,-76.0285737,4.9428987
Muhoroni,Kenya,35.1983598,-0.1566093
Wates,Indonesia,110.1434668,-7.893728
Majalengka,Indonesia,108.2852049,-6.7790605
Alak,Indonesia,123.5616058,-10.1917127
Jaraguá,Brazil,-49.4466005,-15.6469053
Gamboula,Central African Republic,15.1346669,4.1191962
Dajalorong,Indonesia,113.7136,-7.0609
Dadianzi,China,128.500964,43.661922
Kālīganj,Bangladesh,88.7178035,26.111545
Strömsund,Sweden,15.533251,63.8471115
Ravne na Koroškem,Slovenia,14.9660445,46.5448323
Salt Lake City,United States,-111.8985922,40.7177351
Ringinrejo,Indonesia,112.0416754,-7.9794517
Dongji,China,122.689752,30.190334
Lechinkay,Russia,43.4277773,43.5594247
Qibu,China,116.872657,28.716258
Międzybrodzie Bialskie,Poland,19.1888791,49.7986721
Dobrljin,Bosnia and Herzegovina,16.4839317,45.1462441
Bicos,Philippines,121.0410861,15.6540915
Tandag,Philippines,126.162783,9.090009
Kuhmalahti,Finland,24.5340167,61.5074716
Stepanivka,Ukraine,38.4948982,48.4518702
La Maná,Ecuador,-79.2316042,-0.9411949
Mae Lan,Thailand,101.2353772,6.647477
Dukla,Poland,21.6832308,49.5555137
Xianyang,China,108.708991,34.329605
Otukpa,Nigeria,7.6697323,7.138166
Sumberbening,Indonesia,111.6243377,-7.4207981
Cibunar,Indonesia,106.5495683,-6.3413734
Pandean,Indonesia,112.7032945,-7.6426348
Kivsharivka,Ukraine,37.6810464,49.6297207
Yidian,China,107.759245,34.401112
Lukou,China,118.8719394,31.7338222
Pokój,Poland,17.8430924,50.9040233
Loma Bonita,Mexico,-101.6961551,21.115093
Hujiaying,China,104.980581,26.497669
Zhangdian,China,118.017938,36.806669
Fukuyama,Japan,139.9488853,38.988364
Iyo,Japan,132.7021114,33.7622962
Wadung,Indonesia,111.9075351,-7.0448624
Itabira,Brazil,-43.2182878,-19.6238346
Karpinsk,Russia,60.0672588,59.7725109
Aradac,Serbia,20.2841743,45.3725657
Nuits-Saint-Georges,France,4.9137748,47.1291041
Cipesing,Indonesia,107.5609228,-6.8057733
Vozuća,Bosnia and Herzegovina,18.3655679,44.3783113
Rakiv Lis,Ukraine,24.9194195,51.6203554
Koesan,South Korea,127.766922,35.907757
Patrída,Greece,22.1857013,40.561598
Breda,Netherlands,4.7066416,51.5829309
Domont,France,2.3236877,49.0285391
Seč,Czech Republic,16.8773821,49.5372506
Banhā,Egypt,31.1848307,30.4659929
Nanae,Japan,140.3438019,35.7390788
Sumanding,Indonesia,110.8642328,-6.5640911
Gornyye Klyuchi,Russia,133.5047756,45.2263404
Lutun,China,-0.4111111,51.8851246
Casal da Anja,Portugal,-8.9189073,39.876135
Nossa Senhora de Machede,Portugal,-7.7756872,38.5783058
Batakte,Indonesia,123.5532073,-10.2530955
Bang Kruai,Thailand,100.4227992,13.8135951
Stupari,Bosnia and Herzegovina,18.3753175,44.5722923
Guane,Cuba,-84.0880839,22.1998606
Maszewo Duże,Poland,19.6295361,52.579839
Baguio,Philippines,120.6026406,16.4112875
Jadi,Indonesia,111.9880199,-6.9528113
Vancouver,United States,-122.4979879,45.6585294
Bagrāmī,Afghanistan,69.2698737,34.4906784
Fujioka,Japan,139.9177739,38.7683879
Pregonero,Venezuela,-71.7637309,8.0155697
Kaniów,Poland,20.6630795,50.9872632
Naas,Ireland,-6.67045,53.213319
Aktau,Kazakhstan,51.1985113,43.6410973
Circasia,Colombia,-75.635595,4.616094
Longping,China,107.0336505,27.5566857
Dongdai,China,119.618419,26.241987
Napuro,Philippines,123.9881642,12.6679167
Hongsihu,China,120.752481,31.654375
Simao,China,100.977164,22.78691
Artesianón,Greece,21.89472,39.40278
Zhosaly,Kazakhstan,64.0818612,45.4852437
Jinjia,China,107.019761,28.818645
Nogent-le-Rotrou,France,0.839002,48.3156651
Mankono,Ivory Coast,-6.1898262,8.0599142
Dimitrovgrad,Serbia,22.7826929,43.0208123
San Rafael,Philippines,121.0190818,14.5697429
Svalyava,Ukraine,22.9948916,48.5428567
Ongi,Mongolia,104.0061889,45.3401583
Leribe,Lesotho,28.2526623,-28.9510773
Reda,Poland,18.3257,54.6186348
Yuezhao,China,102.3589828,24.6613135
Hamburg,Germany,10.1569956,53.4460678
Jendouba,Tunisia,8.7756556,36.5072263
Huangban,China,109.169053,28.246367
Söderköping,Sweden,16.3502006,58.4710363
Suileng,China,127.114832,47.236015
Annecy,France,6.121072,45.9018536
Guandiping,China,110.442349,29.588771
Shun’ga,Russia,34.9332074,62.5988609
Svorónos,Greece,22.4624484,40.2683581
Yāsūf,Palestinian Territory,35.239715,32.109371
Klaeng,Thailand,101.6490959,12.7797397
Huangshi,China,115.038835,30.20003
Nagua,Dominican Republic,-70.4044232,18.9345715
Fatumuti,Indonesia,124.4891278,-9.5662977
An Naşşārīyah,Palestinian Territory,35.38711,32.23647
Wahai,Indonesia,129.484497,-2.804472
Timezgadiouine,Morocco,-9.0439796,30.8851314
Jamalteca,Honduras,-87.578697,14.6965
Kedungharjo,Indonesia,111.7227125,-6.9731701
Wuqiao,China,116.391507,37.627661
